{"pageProps":{"sponsors":{"gold":[{"id":1,"name":"居酒屋 HANZO","address":"名古屋市千種区内山3-10-22YAMATOビル地下一階","businessHours":"18:00~26:00 (L.O25:00 ドリンクL.O.25:30)\n不定休","tel":"052-741-2233","comment":"今池1番出口から徒歩1分!大人の秘密基地のような店内で宴会コースも充実!誕生日のサプライズもあります!少人数個室が多数あり、50名様以上の大宴会にも使えます。和洋創作料理や名古屋飯があり、今池一!!だし巻き卵の種類とカクテルの種類が多いです!\nカジュアルな食事を楽しみたいときはぜひ「居酒屋HANZO」へ!!","rank":"gold","images":{"mainUrl":"/images/sponsor/1/main.png","thumbnailUrl":"/images/sponsor/1/thumbnail.png"}},{"id":2,"name":"料理屋 錦三山車楼","address":"愛知県名古屋市中区錦3-10-14 協和錦ビル内","businessHours":"月〜土 17:00~24:00(L.O.23:00)\n定休日 日曜日","tel":"052-951-0222","comment":"四季折々の恵！旬を味わう会席コース。 北陸から直送鮮魚A5ランク黒毛和牛、和食が奏でる最高のおもてなし。ご接待やワンランク上のご宴会に。","rank":"gold","images":{"mainUrl":"/images/sponsor/2/main.png","thumbnailUrl":"/images/sponsor/2/thumbnail.png"}},{"id":3,"name":"近所の鉄板焼き屋 つどい","address":"愛知県名古屋市北区山田1-10-54 ハートイン大曽根 1F\n(大曽根駅5番出口より243m先)","businessHours":"火〜日 17:00~翌2:00\n定休日 月曜日","tel":"052-5595-3958","comment":"今宵も\"つどい\"で賑やかなひととき!\n大曽根駅より徒歩4分の駅近に佇む、隠れた鉄板焼き酒場です。\n肉厚ジューシーな牛ステーキや旬の魚介、お刺身、こだわりの卵料理まで、定番から創作の鉄板焼きならではの逸品と厳選仕入れのこだわり地酒をゆったりとお楽しみください。","rank":"gold","images":{"mainUrl":"/images/sponsor/3/main.png","thumbnailUrl":"/images/sponsor/3/thumbnail.png"}},{"id":4,"name":"台湾小皿料理 南陽倶楽部","address":"愛知県刈谷市桜町1丁目33 エトワールビル１階","businessHours":"月〜土 18:00~3:00(L.O.2:30)\n日 18:00~0:30(L.O.0:00)","tel":"0566-28-0600","comment":"刈谷駅北口から徒歩10秒の場所に位置する南陽倶楽部の看板メニューは、「元祖!!自慢の台湾ラーメン」です！店長のみが知る秘伝のレシピで仕込まれたミンチをふんだんに使った台湾ラーメンは不動の人気で、たくさんのファンがいる自慢のメニューです。その他にも月ごとに変わるおすすめメニューや、メニュー表には載っていない裏メニューが存在するため、何度来店しても飽きることはありません！\n南陽倶楽部の公式インスタグラムでは、おすすめメニューの情報や仕込み風景を投稿しています。ぜひ@nanyoclubのアカウントをフォローして、最新の情報をチェックしてみてください！","rank":"gold","images":{"mainUrl":"/images/sponsor/4/main.png","thumbnailUrl":"/images/sponsor/4/thumbnail.png"}},{"id":5,"name":"厚切り牛タンと東北地酒 陸奥","address":"愛知県名古屋市中区丸の内3-16-27 HB丸の内1F","businessHours":"昼[月～金] 11:30~14:30(LO14:00)\n夜 17:30~23:00 (フードLO22:00/ドリンク LO22:30)\n土曜のランチはお休み\n定休日　日曜日・祝日","tel":"050-5816-2466","comment":"久屋大通駅から徒歩３分のところにあるお店。牛タンや東北名物料理が楽しめます！\nおすすめは厚切り牛タンの炙り焼き！厚切りだけどとても柔らかく美味しい一品。アルバイトには唐揚げも大人気！種類の豊富な日本酒や陸奥ならではのコースもご用意しています！\n昼・夜テイクアウトもできます！Uber Eats・foodpanda・DiDiFoodもやっているので是非！","rank":"gold","images":{"mainUrl":"/images/sponsor/5/main.png","thumbnailUrl":"/images/sponsor/5/thumbnail.png"}},{"id":6,"name":"株式会社 さなる(佐鳴予備校)","address":"愛知県名古屋市中区葵１丁目22-13（名古屋本社）","comment":"小中高対象の学習塾『佐鳴予備校』広報室。同部門では、多くの大学生が制作スタッフとして各広報宣伝ツール(キャンペーンポスター・パンフレット・販促グッズ・受験情報冊子・Webコンテンツ・YouTube動画など)を日々企画・作成を担当しています。\nスタッフエントリーフォーム(https://req.qubo.jp/sanaru/form/lUupXMsx)","rank":"gold","images":{"mainUrl":"/images/sponsor/6/main.png","thumbnailUrl":"/images/sponsor/6/thumbnail.png"}}],"silver":[{"id":7,"name":"炭火やき鳥 きんぼし","address":"愛知県名古屋市千種区今池5-4-9","businessHours":"平日 17:30~23:00\n休日・祝日 17:00~23:00\n定休日 火曜日","tel":"052-732-5421","comment":"牛ハラミのきんぼし焼き、仔羊香草焼き、焼きトマトなどの定番物に加え、夏はフォアグラマンゴー、秋は松茸牛肉巻き、冬はフォアグラ大根、焼きガキ、春は竹の子きんぼし風、ホタテの舌平目巻き等々の串で春夏秋冬を感じて頂けます。1Fにカウンターと掘りごたつ式のお座敷があります。2Fにはパーテーションの付いたテーブル席があります。家庭的な雰囲気のお店です。","rank":"silver","images":{"mainUrl":"/images/sponsor/7/main.png","thumbnailUrl":"/images/sponsor/7/thumbnail.png"}},{"id":8,"name":"神戸六甲道 ぎゅんた","address":"愛知県名古屋市中村区名駅3-28-12大名古屋ビルヂング3F","businessHours":"LUNCH 11:00〜15:00 (L.O. 14:30)\nDINNER 17:00～23:00 (L.O. 22:00)\n定休日 なし（館に準ずる）","tel":"052-414-6448","comment":"神戸で50年愛されているお好み焼きと韓国風鉄板焼の名店。老舗ぎゅんたは、どうしてやみつきになるのか。関西風でも広島風でもないぎゅんたのお好み焼きは素材の味を生かした独自の焼き方。独創的なお好み焼きや韓国風鉄板焼を秘伝の味噌「ヤンニンジャン」で食べるのがぎゅんた流。六甲発独創鉄板料理の数々は、お酒のおつまみにも最適。やみつきになるおいしさです。特等席はダイナミックに焼き上げる大きな鉄板の前のカウンター席。熱と音、香りを楽しむ、臨場感。","rank":"silver","images":{"mainUrl":"/images/sponsor/8/main.png","thumbnailUrl":"/images/sponsor/8/thumbnail.png"}},{"id":9,"name":"韓国屋台料理ふみ屋","address":"愛知県名古屋市西区市場木町173 サンデンハイツ","businessHours":"ランチ 11:30~14:30（L.O.14:00）\nディナー 17:00~23:00（L.O.22:30）\n定休日：水曜日","tel":"052-502-2308","comment":"韓国屋台の気軽さを、地域の皆様に楽しんでもらいたい！そんな思いで、2021年1月7日にふみ屋は生まれ変わりました。（旧大衆天ぷら酒場ふみ屋）\n韓国屋台の天ぷら、ヤンニョムチキン、蒸し餃子、韓国ソーセージ、オデン、トッポギ、チャプチェ、丁寧な仕込みで仕上げるキムチ、ナムルの数々。皆様のご来店、心よりお待ちしております！","rank":"silver","images":{"mainUrl":"/images/sponsor/9/main.png","thumbnailUrl":"/images/sponsor/9/thumbnail.png"}}],"bronze":[{"id":10,"name":"キッチン欧味","address":"愛知県名古屋市千種区千種1-9-23","businessHours":"11:00～15:00　\n17:00～22:00\n（日・祝～21:00）\n定休日 月曜日（月曜祝日の場合は翌日火曜日休み","tel":"052-734-0345","comment":"キッチン欧味では安心・安全ておいしく召し上がっていただけるような工夫と、毎日でも食べたくなるようなあたたかい手作りをモットーにしています。お料理はテイクアウトもできますので、お気軽におたずね下さい。","rank":"bronze","images":{"mainUrl":"/images/sponsor/10/main.png","thumbnailUrl":"/images/sponsor/10/thumbnail.png"}},{"id":11,"name":"喫茶・コーヒーショップ コルム","address":"名古屋市千種区北千種2-3-2","businessHours":"火~土:8:00~18:00\n日 :8:00~15:00\n定休日 月曜日","tel":"052-722-7145","comment":"レトロな雰囲気で芸工生に大人気のお店です。オムライス、カレー、焼きそばなどお手頃価格で美味しいメニューがたくさん！優しいお母さんが迎えてくれます。","rank":"bronze","images":{"mainUrl":"/images/sponsor/11/main.png","thumbnailUrl":"/images/sponsor/11/thumbnail.png"}},{"id":12,"name":"肴酒房 べんがらや","address":"愛知県名古屋市千種区今池4-7-11","businessHours":"16:00~24:00(L.O.23:20)\n定休日 月曜日","tel":"052-732-5421","comment":"芸工の大宴会にはおなじみのお店です。掘りごたつ席やテーブル席など、大小様々なスペースがあり、少人数での飲み会にもぴったりです。当日予約もOK！webクーポンもあるので是非チェックしてみてくださいね。","rank":"bronze","images":{"mainUrl":"/images/sponsor/12/main.png","thumbnailUrl":"/images/sponsor/12/thumbnail.png"}}]},"projects":[{"id":1,"name":"exhibition","title":"作品展覧会場","subTitle":"見て、感じ、投票しよう！","description":"芸工生による作品の展示です。シャッター/フィルム/レンズという３つのテーマに対し、各々が解釈し制作した作品や展示室。作者の想いに触れ、好きな作品に投票しよう！","images":{"thumbnailUrl":"/images/project/exhibition/thumbnail.png","backgroundUrl":"/images/project/exhibition/bg.png"},"siteUrl":{"href":"/project/exhibition","external":false}},{"id":2,"name":"mockshop","title":"芸工展模擬店","subTitle":"芸工生が出店する模擬店！","description":"ブース部署では今年も模擬店を募集しました！個性的な模擬店がたくさん！全てここでしか買えないグッズなので、チェック必須です！是非手に入れてくださいね〜","images":{"thumbnailUrl":"/images/project/mockshop/thumbnail.png","backgroundUrl":"/images/project/mockshop/bg.png"},"siteUrl":{"href":"https://preview.studio.site/live/wQOVXNK4aD/1","external":true}},{"id":3,"name":"cm","title":"2021芸工展CM","subTitle":"芸工展の告知映像","description":"今年の芸工展はオンライン開催、どこからでも芸工にお越しください。","images":{"thumbnailUrl":"/images/project/cm/thumbnail.png","backgroundUrl":"/images/project/cm/bg.png"},"siteUrl":{"href":"/project/cm","external":false}},{"id":4,"name":"web","title":"webサイト特集","subTitle":"FUllUSHがテーマのサイト","description":"芸工展のテーマ『FUllUSH』にちなんだwebサイト特集です！1,2年生がデザイン班とコーディング班に分かれて制作しました！どのサイトも見応えバッチリ✌️🌟","images":{"thumbnailUrl":"/images/project/web/thumbnail.png","backgroundUrl":"/images/project/web/bg.png"},"siteUrl":{"href":"/project/web","external":false}},{"id":5,"name":"game","title":"コンテンツ班企画","subTitle":"個性豊かなゲームとお部屋","description":"web部署所属コンテンツ班による個性豊かな作品たち！！！ 1、2年生はUnityroomにてゲーム作品を、3年生はClusterにて部屋企画を公開してるぜっ","images":{"thumbnailUrl":"/images/project/game/thumbnail.png","backgroundUrl":"/images/project/game/bg.png"},"siteUrl":{"href":"/project/game","external":false}},{"id":6,"name":"workshop","title":"ワークショップ","subTitle":"ﾍﾟｰﾊﾟｰｸﾗﾌﾄ企画&WS紹介","description":"芸工生が作ったペーパークラフト10種類を配布！好きなものをDLしてお家で作ってみてね！！また、フローチャートであなたにぴったりなワークショップ企画を調べてみてね","images":{"thumbnailUrl":"/images/project/workshop/thumbnail.png","backgroundUrl":"/images/project/workshop/bg.png"},"siteUrl":{"href":"https://geikousai-ncu.com/workshop/index.html","external":true}},{"id":7,"name":"cafe","title":"lil memory cafe","subTitle":"今年のカフェはオンライン！","description":"オンラインでの芸工展という、新たな状況下で開く今年のカフェ。例年のように美味しい料理を提供することはできないけれど、カフェの設計やデザート開発・グッズ販売など、カフェ部署の新たなカタチです。","images":{"thumbnailUrl":"/images/project/cafe/thumbnail.png","backgroundUrl":"/images/project/cafe/bg.png"},"siteUrl":{"href":"https://geikousai-ncu.com/cafe/index.html","external":true}},{"id":8,"name":"stage","title":"ステージ企画☆","subTitle":"楽しい☆動画!!CMも見てね","description":"3Oのギャンブラー柴田明治とボートレース蒲郡に行く旅。果たして一攫千金はあるのか！？\n芸工展長の脛骨に思いを寄せる素敵な女性たちとデートをしてめ、脛骨が彼女を作るオーディション。","images":{"thumbnailUrl":"/images/project/stage/thumbnail.png","backgroundUrl":"/images/project/stage/bg.png"},"siteUrl":{"href":"/project/stage","external":false}}]},"__N_SSG":true}